{"type":"FeatureCollection","features":[{"type":"Feature","geometry":{"type":"Point","coordinates":[103.835,1.279]},"properties":{"name":"Singapore General Hospital"}},{"type":"Feature","geometry":{"type":"Point","coordinates":[103.7836,1.2949]},"properties":{"name":"National University Hospital"}},{"type":"Feature","geometry":{"type":"Point","coordinates":[103.8459,1.3215]},"properties":{"name":"Tan Tock Seng Hospital"}},{"type":"Feature","geometry":{"type":"Point","coordinates":[103.9493,1.3401]},"properties":{"name":"Changi General Hospital"}},{"type":"Feature","geometry":{"type":"Point","coordinates":[103.8386,1.4245]},"properties":{"name":"Khoo Teck Puat Hospital"}},{"type":"Feature","geometry":{"type":"Point","coordinates":[103.745,1.3339]},"properties":{"name":"Ng Teng Fong General Hospital"}},{"type":"Feature","geometry":{"type":"Point","coordinates":[103.8938,1.3956]},"properties":{"name":"Sengkang General Hospital"}},{"type":"Feature","geometry":{"type":"Point","coordinates":[103.847,1.3107]},"properties":{"name":"KK Women's and Children's Hospital"}},{"type":"Feature","geometry":{"type":"Point","coordinates":[103.787,1.438]},"properties":{"name":"Woodlands Health Campus"}},{"type":"Feature","geometry":{"type":"Point","coordinates":[103.8,1.287]},"properties":{"name":"Alexandra Hospital"}},{"type":"Feature","geometry":{"type":"Point","coordinates":[103.835,1.305]},"properties":{"name":"Mount Elizabeth Hospital"}},{"type":"Feature","geometry":{"type":"Point","coordinates":[103.844,1.3205]},"properties":{"name":"Mount Elizabeth Novena Hospital"}},{"type":"Feature","geometry":{"type":"Point","coordinates":[103.817,1.3075]},"properties":{"name":"Gleneagles Hospital"}},{"type":"Feature","geometry":{"type":"Point","coordinates":[103.839,1.3415]},"properties":{"name":"Mount Alvernia Hospital"}},{"type":"Feature","geometry":{"type":"Point","coordinates":[103.858,1.301]},"properties":{"name":"Raffles Hospital"}},{"type":"Feature","geometry":{"type":"Point","coordinates":[103.912,1.316]},"properties":{"name":"Parkway East Hospital"}},{"type":"Feature","geometry":{"type":"Point","coordinates":[103.842,1.325]},"properties":{"name":"Thomson Medical Centre"}},{"type":"Feature","geometry":{"type":"Point","coordinates":[103.854,1.312]},"properties":{"name":"Farrer Park Hospital"}},{"type":"Feature","geometry":{"type":"Point","coordinates":[103.892,1.376]},"properties":{"name":"Bright Vision Hospital"}},{"type":"Feature","geometry":{"type":"Point","coordinates":[103.887,1.377]},"properties":{"name":"Institute of Mental Health"}},{"type":"Feature","geometry":{"type":"Point","coordinates":[103.8355,1.2795]},"properties":{"name":"National Heart Centre Singapore"}},{"type":"Feature","geometry":{"type":"Point","coordinates":[103.8345,1.2785]},"properties":{"name":"National Cancer Centre Singapore"}},{"type":"Feature","geometry":{"type":"Point","coordinates":[103.837,1.4235]},"properties":{"name":"KTPH Yishun Community Hospital"}},{"type":"Feature","geometry":{"type":"Point","coordinates":[103.8385,1.281]},"properties":{"name":"Outram Community Hospital"}},{"type":"Feature","geometry":{"type":"Point","coordinates":[103.893,1.395]},"properties":{"name":"Sengkang Community Hospital"}},{"type":"Feature","geometry":{"type":"Point","coordinates":[103.746,1.3335]},"properties":{"name":"Jurong Community Hospital"}}]}